[
    {
        "name": "Marovo Lagoon Snorkeling and Diving",
        "category": "Adventure",
        "score": 5,
        "description": "Discover the underwater paradise of Marovo Lagoon, the world's largest saltwater lagoon, renowned for its incredible snorkeling and diving.",
        "city": "Marovo Lagoon",
        "longitude": 158.85,
        "latitude": -8.5,
        "cost": "$$$"
    },
    {
        "name": "Kennedy Island Day Trip",
        "category": "History",
        "score": 4,
        "description": "Visit Kennedy Island, named after John F. Kennedy, and explore its historical significance during World War II, with opportunities for snorkeling.",
        "city": "Kennedy Island",
        "longitude": 157.8761,
        "latitude": -8.4292,
        "cost": "$$"
    },
    {
        "name": "Honiara Cultural Tour",
        "category": "Culture",
        "score": 4,
        "description": "Explore Honiara, the capital city, visiting cultural sites like the Solomon Islands National Museum, local markets, and World War II relics.",
        "city": "Honiara",
        "longitude": 159.9729,
        "latitude": -9.4456,
        "cost": "$"
    },
    {
        "name": "Gizo Island Market Visit",
        "category": "Culture",
        "score": 3,
        "description": "Stroll through the vibrant Gizo Island market, a hub for local crafts, fresh produce, and a glimpse into the everyday life of Solomon Islanders.",
        "city": "Gizo",
        "longitude": 156.8419,
        "latitude": -8.103,
        "cost": "$"
    },
    {
        "name": "Rennell Island Lake Tegano Visit",
        "category": "Nature",
        "score": 4,
        "description": "Explore Lake Tegano on Rennell Island, a UNESCO World Heritage site known for its unique biodiversity and stunning freshwater lake.",
        "city": "Rennell Island",
        "longitude": 160.1833,
        "latitude": -11.6667,
        "cost": "$$$"
    },
    {
        "name": "Mataniko Falls Adventure Hike",
        "category": "Adventure",
        "score": 4,
        "description": "Hike to the spectacular Mataniko Falls, a hidden gem near Honiara, offering a scenic hike through the jungle and a refreshing swim.",
        "city": "Honiara",
        "longitude": 160.0,
        "latitude": -9.4333,
        "cost": "$$"
    },
    {
        "name": "Skull Island Historic Visit",
        "category": "History",
        "score": 4,
        "description": "Visit Skull Island, known for its eerie history and collection of ancient human skulls, offering a glimpse into the Solomon Islands' past.",
        "city": "Skull Island",
        "longitude": 157.9381,
        "latitude": -8.4855,
        "cost": "$$"
    },
    {
        "name": "Malaita Island Kastom Village Tour",
        "category": "Culture",
        "score": 4,
        "description": "Experience traditional life in a Kastom Village on Malaita Island, learning about local customs, crafts, and way of life.",
        "city": "Malaita",
        "longitude": 160.7667,
        "latitude": -9.1667,
        "cost": "$"
    },
    {
        "name": "Florida Islands Kayaking",
        "category": "Leisure",
        "score": 4,
        "description": "Kayak around the serene Florida Islands, exploring its secluded beaches, traditional villages, and vibrant coral reefs.",
        "city": "Florida Islands",
        "longitude": 160.15,
        "latitude": -9.5,
        "cost": "$$"
    },
    {
        "name": "Tulagi Island World War II Tour",
        "category": "History",
        "score": 4,
        "description": "Explore Tulagi Island's World War II history, visiting remnants from the war and learning about the island's strategic importance.",
        "city": "Tulagi",
        "longitude": 160.1467,
        "latitude": -9.1031,
        "cost": "$$"
    }
]
