[
    {
        "name": "Hagia Sophia and Blue Mosque Visit",
        "category": "Cultural",
        "score": 5,
        "description": "Explore the Hagia Sophia and Blue Mosque in Istanbul, iconic symbols of the city's rich history, offering stunning architectural beauty.",
        "city": "Istanbul",
        "longitude": 28.9790,
        "latitude": 41.0086,
        "cost": "$",
        "best_time_to_go": ["April", "May", "September", "October"],
        "best_time_to_go_description": "The best time to visit the Hagia Sophia and Blue Mosque is during the spring (April and May) and autumn (September and October) when the weather is pleasant, and there are fewer crowds compared to the peak summer months.",
        "worst_time_to_go": ["July", "August"],
        "worst_time_to_go_description": "Avoid visiting in July and August if possible, as these months can be extremely hot and crowded in Istanbul, making it less enjoyable to explore the historic sites.",
        "suggested_venues": [
            {
                "name": "Hagia Sophia",
                "description": "Discover the Hagia Sophia, a UNESCO World Heritage site, and marvel at its impressive dome, intricate mosaics, and rich history.",
                "location": "Hagia Sophia, Istanbul, Turkey",
                "longitude": 28.9760,
                "latitude": 41.0084
            },
            {
                "name": "Blue Mosque",
                "description": "Visit the Blue Mosque (Sultan Ahmed Mosque), famous for its stunning blue tiles, six minarets, and beautiful courtyard.",
                "location": "Blue Mosque, Istanbul, Turkey",
                "longitude": 28.9764,
                "latitude": 41.0054
            },
            {
                "name": "Historical Tours",
                "description": "Join guided historical tours to learn more about the significance and stories behind these iconic landmarks.",
                "location": "Istanbul Tour Companies, Istanbul, Turkey",
                "longitude": 28.9786,
                "latitude": 41.0092
            },
            {
                "name": "Grand Bazaar",
                "description": "Explore the nearby Grand Bazaar, one of the world's oldest and largest covered markets, offering a variety of goods and souvenirs.",
                "location": "Grand Bazaar, Istanbul, Turkey",
                "longitude": 28.9700,
                "latitude": 41.0108
            }
        ]
    },


    {
        "name": "Cappadocia Hot Air Balloon Ride",
        "category": "Adventure",
        "score": 5,
        "description": "Embark on a magical journey with a hot air balloon ride over Cappadocia, offering an unparalleled view of its surreal landscapes and unique rock formations.",
        "city": "Cappadocia",
        "longitude": 34.8406,
        "latitude": 38.6466,
        "cost": "$$$",
        "best_time_to_go": ["April", "May", "September", "October"],
        "best_time_to_go_description": "Optimal balloon ride conditions are found in spring and autumn, with mild weather and clear skies, providing the perfect backdrop for breathtaking views.",
        "worst_time_to_go": ["December", "January", "February"],
        "worst_time_to_go_description": "Winter months often bring challenging weather conditions, leading to cancellations and less optimal balloon flight experiences.",
        "suggested_venues": [
            {
                "name": "Cappadocia Viewpoints",
                "description": "Visit popular viewpoints like Uçhisar Castle and Love Valley to see balloons dotting the early morning skies.",
                "location": "Various locations, Cappadocia, Turkey",
                "longitude": 34.8616,
                "latitude": 38.6316
            },
            {
                "name": "Goreme Open Air Museum",
                "description": "Combine your balloon ride with a visit to this UNESCO site, showcasing ancient cave churches and frescoes.",
                "location": "Goreme, Cappadocia, Turkey",
                "longitude": 34.8422,
                "latitude": 38.6437
            },
            {
                "name": "Sunrise Balloon Flights",
                "description": "Join an early morning balloon flight for the most mesmerizing sunrise views over the lunar-like landscape of Cappadocia.",
                "location": "Cappadocia Balloon Take-off Sites, Turkey",
                "longitude": 34.8349,
                "latitude": 38.6409
            },
            {
                "name": "Cappadocia Hiking Trails",
                "description": "Explore the valleys and hills of Cappadocia on foot to fully immerse yourself in its natural beauty post-flight.",
                "location": "Various trails, Cappadocia, Turkey",
                "longitude": 34.8497,
                "latitude": 38.6473
            }
        ]
    },


    {
        "name": "Ephesus Ancient City Tour",
        "category": "History",
        "score": 4,
        "description": "Discover the ancient city of Ephesus, one of the largest Roman archaeological sites in the eastern Mediterranean.",
        "city": "Selçuk",
        "longitude": 27.3404,
        "latitude": 37.9397,
        "cost": "$$",
        "best_time_to_go": ["March", "April", "October", "November"],
        "best_time_to_go_description": "Spring and autumn are ideal for visiting Ephesus, offering pleasant weather, fewer crowds, and a more comfortable exploration of the outdoor site.",
        "worst_time_to_go": ["July", "August"],
        "worst_time_to_go_description": "The peak summer months can be extremely hot and crowded, making the outdoor exploration less enjoyable.",
        "suggested_venues": [
            {
                "name": "Library of Celsus",
                "description": "Explore the stunning Library of Celsus, a remarkable example of Roman architectural grandeur, once a monumental tomb and later a library.",
                "location": "Ephesus, Selçuk, Turkey",
                "longitude": 27.3422,
                "latitude": 37.9403
            },
            {
                "name": "Terrace Houses",
                "description": "Visit the Terrace Houses to see well-preserved ancient homes with beautiful mosaics and frescoes, offering a glimpse into Roman domestic life.",
                "location": "Ephesus, Selçuk, Turkey",
                "longitude": 27.3411,
                "latitude": 37.9408
            },
            {
                "name": "Great Theatre of Ephesus",
                "description": "Marvel at the Great Theatre, a grand structure that could once seat 25,000 spectators, used for performances and political gatherings.",
                "location": "Ephesus, Selçuk, Turkey",
                "longitude": 27.3409,
                "latitude": 37.9412
            },
            {
                "name": "Temple of Artemis",
                "description": "Visit the site of one of the Seven Wonders of the Ancient World, the Temple of Artemis, although little remains today.",
                "location": "Near Ephesus, Selçuk, Turkey",
                "longitude": 27.3656,
                "latitude": 37.9494
            }
        ]
    },


    {
        "name": "Pamukkale Thermal Pools",
        "category": "Nature",
        "score": 4,
        "description": "Visit the Pamukkale thermal pools, famous for their terraces of carbonate minerals and therapeutic waters.",
        "city": "Pamukkale",
        "longitude": 29.1187,
        "latitude": 37.9136,
        "cost": "$$",
        "best_time_to_go": ["April", "May", "September", "October"],
        "best_time_to_go_description": "The moderate temperatures in spring and autumn make these seasons ideal for visiting the thermal pools and enjoying the outdoor beauty comfortably.",
        "worst_time_to_go": ["July", "August"],
        "worst_time_to_go_description": "The summer months can be very hot and crowded, which may detract from the peaceful experience of the thermal pools.",
        "suggested_venues": [
            {
                "name": "Travertines of Pamukkale",
                "description": "Explore the white travertine terraces formed by the flowing warm water, creating a unique and picturesque landscape.",
                "location": "Pamukkale, Turkey",
                "longitude": 29.1194,
                "latitude": 37.9194
            },
            {
                "name": "Hierapolis Ancient City",
                "description": "Combine your visit with a tour of the nearby ancient city of Hierapolis, an archaeological wonder with rich Roman and Byzantine history.",
                "location": "Near Pamukkale, Turkey",
                "longitude": 29.1244,
                "latitude": 37.9193
            },
            {
                "name": "Antique Pool",
                "description": "Swim in the Antique Pool, also known as Cleopatra's Pool, amidst ancient ruins for a unique and relaxing experience.",
                "location": "Pamukkale, Turkey",
                "longitude": 29.1253,
                "latitude": 37.9223
            },
            {
                "name": "Pamukkale Natural Park",
                "description": "Stroll through the nearby natural park, offering a serene environment and spectacular views of the travertines.",
                "location": "Pamukkale, Turkey",
                "longitude": 29.1230,
                "latitude": 37.9210
            }
        ]
    },


    {
        "name": "Topkapi Palace Exploration",
        "category": "History",
        "score": 4,
        "description": "Explore Topkapi Palace in Istanbul, the primary residence of the Ottoman sultans for nearly 400 years, showcasing opulent courtyards and rich exhibits.",
        "city": "Istanbul",
        "longitude": 28.9842,
        "latitude": 41.0136,
        "cost": "$$",
        "best_time_to_go": ["March", "April", "September", "October"],
        "best_time_to_go_description": "Spring and autumn offer pleasant weather for exploring the extensive grounds and interiors, with fewer tourists compared to the peak summer season.",
        "worst_time_to_go": ["July", "August"],
        "worst_time_to_go_description": "The peak summer months can be extremely crowded and hot, potentially impacting the overall experience of your visit.",
        "suggested_venues": [
            {
                "name": "Imperial Council",
                "description": "Discover the Imperial Council chamber, where significant state affairs and meetings took place under the sultans' rule.",
                "location": "Topkapi Palace, Istanbul, Turkey",
                "longitude": 28.9850,
                "latitude": 41.0138
            },
            {
                "name": "Harem Section",
                "description": "Visit the Harem, a private area for the sultan's family, renowned for its intricate architecture and rich history.",
                "location": "Topkapi Palace, Istanbul, Turkey",
                "longitude": 28.9838,
                "latitude": 41.0125
            },
            {
                "name": "Imperial Treasury",
                "description": "Explore the Imperial Treasury, home to a stunning collection of jewels, artifacts, and gifts from various empires and kingdoms.",
                "location": "Topkapi Palace, Istanbul, Turkey",
                "longitude": 28.9845,
                "latitude": 41.0129
            },
            {
                "name": "Palace Kitchens",
                "description": "Check out the palace kitchens, which display a fascinating array of porcelain, silver, and cookware used in the Ottoman court.",
                "location": "Topkapi Palace, Istanbul, Turkey",
                "longitude": 28.9840,
                "latitude": 41.0134
            }
        ]
    },


    {
        "name": "Grand Bazaar Shopping Experience",
        "category": "Leisure",
        "score": 3,
        "description": "Shop at Istanbul's Grand Bazaar, one of the largest and oldest covered markets in the world, offering a variety of traditional goods and souvenirs.",
        "city": "Istanbul",
        "longitude": 28.9674,
        "latitude": 41.0107,
        "cost": "$",
        "best_time_to_go": ["April", "May", "September", "October"],
        "best_time_to_go_description": "The moderate weather in spring and autumn makes these months ideal for exploring the bazaar comfortably, avoiding the extreme summer heat.",
        "worst_time_to_go": ["July", "August"],
        "worst_time_to_go_description": "High temperatures and peak tourist season in the summer can lead to overcrowded conditions, making shopping less enjoyable.",
        "suggested_venues": [
            {
                "name": "Jewelry Shops",
                "description": "Explore a variety of exquisite jewelry shops offering unique designs in gold, silver, and precious stones.",
                "location": "Grand Bazaar, Istanbul, Turkey",
                "longitude": 28.9676,
                "latitude": 41.0108
            },
            {
                "name": "Carpet Sellers",
                "description": "Discover an array of traditional Turkish carpets and rugs, known for their quality and craftsmanship.",
                "location": "Grand Bazaar, Istanbul, Turkey",
                "longitude": 28.9678,
                "latitude": 41.0109
            },
            {
                "name": "Spice Stands",
                "description": "Indulge in the rich aromas and colors of the spice stands, offering a variety of spices, teas, and Turkish delights.",
                "location": "Grand Bazaar, Istanbul, Turkey",
                "longitude": 28.9679,
                "latitude": 41.0110
            },
            {
                "name": "Souvenir Shops",
                "description": "Find a wide selection of souvenirs, from intricate ceramics to traditional Turkish lamps, perfect for keepsakes or gifts.",
                "location": "Grand Bazaar, Istanbul, Turkey",
                "longitude": 28.9680,
                "latitude": 41.0111
            }
        ]
    },


    {
        "name": "Antalya Old Town and Beaches",
        "category": "Leisure",
        "score": 3,
        "description": "Enjoy the historic Old Town of Antalya, Kaleiçi, and relax on the beautiful beaches along the Turkish Riviera.",
        "city": "Antalya",
        "longitude": 30.7133,
        "latitude": 36.8969,
        "cost": "$$",
        "best_time_to_go": ["April", "May", "September", "October"],
        "best_time_to_go_description": "Spring and autumn provide the perfect balance of warm weather and smaller crowds, ideal for exploring the city and enjoying the beaches.",
        "worst_time_to_go": ["July", "August"],
        "worst_time_to_go_description": "The summer months can be extremely hot and crowded, especially on the beaches, which may affect the quality of your experience.",
        "suggested_venues": [
            {
                "name": "Kaleiçi (Old Town)",
                "description": "Stroll through the charming streets of Kaleiçi, filled with historic buildings, boutique hotels, and quaint cafes.",
                "location": "Kaleiçi, Antalya, Turkey",
                "longitude": 30.7144,
                "latitude": 36.8876
            },
            {
                "name": "Konyaaltı Beach",
                "description": "Relax on Konyaaltı Beach, known for its stunning pebble shores and clear blue waters, backed by the breathtaking Taurus Mountains.",
                "location": "Konyaaltı, Antalya, Turkey",
                "longitude": 30.6419,
                "latitude": 36.8836
            },
            {
                "name": "Lara Beach",
                "description": "Visit Lara Beach, a popular sandy beach offering a variety of water sports and beachfront resorts.",
                "location": "Lara, Antalya, Turkey",
                "longitude": 30.7612,
                "latitude": 36.8555
            },
            {
                "name": "Hadrian's Gate",
                "description": "Explore Hadrian's Gate, a triumphal arch that is a magnificent example of Roman architecture in the heart of Antalya.",
                "location": "Kaleiçi, Antalya, Turkey",
                "longitude": 30.7136,
                "latitude": 36.8869
            }
        ]
    },


    {
        "name": "Sumela Monastery Visit",
        "category": "Cultural",
        "score": 4,
        "description": "Discover the Sumela Monastery, a stunning Greek Orthodox monastery perched on a cliff in the Maçka district of Trabzon.",
        "city": "Trabzon",
        "longitude": 39.7108,
        "latitude": 40.9889,
        "cost": "$$",
        "best_time_to_go": ["May", "June", "September", "October"],
        "best_time_to_go_description": "Spring and early autumn offer ideal weather for exploring the monastery, with fewer crowds and pleasant temperatures.",
        "worst_time_to_go": ["December", "January", "February"],
        "worst_time_to_go_description": "Winter months can be harsh with possible snowfall, making access to the monastery difficult and potentially hazardous.",
        "suggested_venues": [
            {
                "name": "Main Chapel",
                "description": "Visit the main chapel to view the exquisite frescoes that depict biblical scenes and saints.",
                "location": "Sumela Monastery, Trabzon, Turkey",
                "longitude": 39.7110,
                "latitude": 40.9891
            },
            {
                "name": "Rocky Paths",
                "description": "Explore the monastery's unique architecture along the rocky paths and take in the breathtaking views of the surrounding valley.",
                "location": "Sumela Monastery, Trabzon, Turkey",
                "longitude": 39.7112,
                "latitude": 40.9893
            },
            {
                "name": "Virgin Mary Icon",
                "description": "See the famous icon of the Virgin Mary, believed to be one of the reasons for the monastery's founding.",
                "location": "Sumela Monastery, Trabzon, Turkey",
                "longitude": 39.7106,
                "latitude": 40.9887
            },
            {
                "name": "Altındere Valley National Park",
                "description": "Enjoy the natural beauty of the Altındere Valley National Park surrounding the monastery, ideal for hiking and photography.",
                "location": "Near Sumela Monastery, Trabzon, Turkey",
                "longitude": 39.6500,
                "latitude": 40.9500
            }
        ]
    },


    {
        "name": "Göbekli Tepe Archaeological Site",
        "category": "History",
        "score": 5,
        "description": "Visit Göbekli Tepe, one of the world's oldest temple complexes, offering insights into early human settlements and civilizations.",
        "city": "Şanlıurfa",
        "longitude": 38.9225,
        "latitude": 37.2236,
        "cost": "$",
        "best_time_to_go": ["March", "April", "October", "November"],
        "best_time_to_go_description": "The mild temperatures in spring and autumn make these months ideal for exploring the outdoor archaeological site comfortably.",
        "worst_time_to_go": ["July", "August"],
        "worst_time_to_go_description": "Summer months can be extremely hot and dry, making outdoor exploration of the site challenging and less enjoyable.",
        "suggested_venues": [
            {
                "name": "Pillar Circles",
                "description": "Explore the series of massive stone pillars arranged in circles, believed to be used for rituals or social gatherings.",
                "location": "Göbekli Tepe, Şanlıurfa, Turkey",
                "longitude": 38.9226,
                "latitude": 37.2237
            },
            {
                "name": "Carved Reliefs",
                "description": "View the intricate animal and abstract human carvings on the pillars, providing insights into the symbolic world of prehistoric people.",
                "location": "Göbekli Tepe, Şanlıurfa, Turkey",
                "longitude": 38.9228,
                "latitude": 37.2238
            },
            {
                "name": "Archaeological Museum of Şanlıurfa",
                "description": "Visit the nearby museum to see artifacts unearthed from Göbekli Tepe and learn more about its historical significance.",
                "location": "Şanlıurfa, Turkey",
                "longitude": 38.7894,
                "latitude": 37.1583
            },
            {
                "name": "Neolithic Artifacts",
                "description": "Examine the variety of Neolithic tools, figurines, and other artifacts found at the site, offering a glimpse into ancient life.",
                "location": "Göbekli Tepe, Şanlıurfa, Turkey",
                "longitude": 38.9227,
                "latitude": 37.2239
            }
        ]
    },


    {
        "name": "Mount Nemrut Sunrise or Sunset Tour",
        "category": "Nature",
        "score": 4,
        "description": "Witness a breathtaking sunrise or sunset at Mount Nemrut, known for its giant head statues and a UNESCO World Heritage site.",
        "city": "Kahta",
        "longitude": 38.7406,
        "latitude": 37.9814,
        "cost": "$$",
        "best_time_to_go": ["May", "June", "September", "October"],
        "best_time_to_go_description": "These months offer the best weather conditions for viewing the sunrise or sunset, with clear skies and moderate temperatures.",
        "worst_time_to_go": ["December", "January", "February"],
        "worst_time_to_go_description": "Winter months can be quite cold and may have snow, making access to the site difficult and lessening the chance of a clear view.",
        "suggested_venues": [
            {
                "name": "Giant Head Statues",
                "description": "Marvel at the enigmatic giant head statues and remains of the tomb-sanctuary of King Antiochus I of Commagene.",
                "location": "Mount Nemrut, Kahta, Turkey",
                "longitude": 38.7399,
                "latitude": 37.9807
            },
            {
                "name": "East and West Terraces",
                "description": "Visit the East and West Terraces to witness the alignment of the statues with the rising and setting sun.",
                "location": "Mount Nemrut, Kahta, Turkey",
                "longitude": 38.7410,
                "latitude": 37.9810
            },
            {
                "name": "Euphrates River Viewpoint",
                "description": "Enjoy the stunning view of the Euphrates River and the surrounding landscape from the summit of Mount Nemrut.",
                "location": "Mount Nemrut, Kahta, Turkey",
                "longitude": 38.7420,
                "latitude": 37.9820
            },
            {
                "name": "Commagene Civilization Museum",
                "description": "Explore the museum to learn about the history and cultural significance of Mount Nemrut and the Commagene Kingdom.",
                "location": "Kahta, Turkey",
                "longitude": 38.6203,
                "latitude": 37.7893
            }
        ]
    }    
]
