[
    {
        "name": "Hagia Sophia and Blue Mosque Visit",
        "category": "Cultural",
        "score": 5,
        "description": "Explore the Hagia Sophia and Blue Mosque in Istanbul, iconic symbols of the city's rich history, offering stunning architectural beauty.",
        "city": "Istanbul",
        "longitude": 28.9790,
        "latitude": 41.0086,
        "cost": "$",
        "best_time_to_go": ["April", "May", "September", "October"],
        "best_time_to_go_description": "The best time to visit the Hagia Sophia and Blue Mosque is during the spring (April and May) and autumn (September and October) when the weather is pleasant, and there are fewer crowds compared to the peak summer months.",
        "worst_time_to_go": ["July", "August"],
        "worst_time_to_go_description": "Avoid visiting in July and August if possible, as these months can be extremely hot and crowded in Istanbul, making it less enjoyable to explore the historic sites.",
        "suggested_venues": [
            {
                "name": "Hagia Sophia",
                "description": "Discover the Hagia Sophia, a UNESCO World Heritage site, and marvel at its impressive dome, intricate mosaics, and rich history.",
                "location": "Hagia Sophia, Istanbul, Turkey",
                "longitude": 28.9760,
                "latitude": 41.0084
            },
            {
                "name": "Blue Mosque",
                "description": "Visit the Blue Mosque (Sultan Ahmed Mosque), famous for its stunning blue tiles, six minarets, and beautiful courtyard.",
                "location": "Blue Mosque, Istanbul, Turkey",
                "longitude": 28.9764,
                "latitude": 41.0054
            },
            {
                "name": "Historical Tours",
                "description": "Join guided historical tours to learn more about the significance and stories behind these iconic landmarks.",
                "location": "Istanbul Tour Companies, Istanbul, Turkey",
                "longitude": 28.9786,
                "latitude": 41.0092
            },
            {
                "name": "Grand Bazaar",
                "description": "Explore the nearby Grand Bazaar, one of the world's oldest and largest covered markets, offering a variety of goods and souvenirs.",
                "location": "Grand Bazaar, Istanbul, Turkey",
                "longitude": 28.9700,
                "latitude": 41.0108
            }
        ]
    },


    {
        "name": "Cappadocia Hot Air Balloon Ride",
        "category": "Adventure",
        "score": 5,
        "description": "Experience a hot air balloon ride over Cappadocia, known for its unique fairy chimneys, rock formations, and breathtaking landscapes.",
        "city": "Cappadocia",
        "longitude": 34.8406,
        "latitude": 38.6466,
        "cost": "$$$",
        "best_time_to_go": ["April", "May", "September", "October"],
        "best_time_to_go_description": "The best time to go for a hot air balloon ride in Cappadocia is during the spring (April and May) and autumn (September and October) when the weather is mild, and the skies are clear for spectacular views.",
        "worst_time_to_go": ["December", "January", "February"],
        "worst_time_to_go_description": "Avoid visiting in December, January, and February as Cappadocia can experience cold temperatures and fewer hot air balloon flights during the winter months.",
        "suggested_companies": [
            {
                "name": "Butterfly Balloons",
                "description": "Book a hot air balloon ride with Butterfly Balloons, known for their experienced pilots and safe, memorable flights.",
                "location": "Goreme, Cappadocia, Turkey",
                "longitude": 34.8306,
                "latitude": 38.6409,
                "website": "https://www.butterflyballoons.com/"
            },
            {
                "name": "Royal Balloons",
                "description": "Experience the beauty of Cappadocia from above with Royal Balloons, offering sunrise balloon rides and professional service.",
                "location": "Goreme, Cappadocia, Turkey",
                "longitude": 34.8349,
                "latitude": 38.6383,
                "website": "https://www.royalballoon.com/"
            }
        ],
        "additional_info": [
            "Hot air balloon rides in Cappadocia offer a unique perspective of the region's famous fairy chimneys and rock formations.",
            "It's advisable to book your hot air balloon ride in advance, especially during the peak tourist season.",
            "Don't forget to dress warmly, as mornings in Cappadocia can be chilly even during the warmer months."
        ]
    },


    {
        "name": "Ephesus Ancient City Tour",
        "category": "History",
        "score": 4,
        "description": "Discover the ancient city of Ephesus, one of the largest Roman archaeological sites in the eastern Mediterranean.",
        "city": "Selçuk",
        "longitude": 27.3404,
        "latitude": 37.9397,
        "cost": "$$"
    },


    {
        "name": "Pamukkale Thermal Pools",
        "category": "Nature",
        "score": 4,
        "description": "Visit the Pamukkale thermal pools, famous for their terraces of carbonate minerals and therapeutic waters.",
        "city": "Pamukkale",
        "longitude": 29.1187,
        "latitude": 37.9136,
        "cost": "$$"
    },


    {
        "name": "Topkapi Palace Exploration",
        "category": "History",
        "score": 4,
        "description": "Explore Topkapi Palace in Istanbul, the primary residence of the Ottoman sultans for nearly 400 years, showcasing opulent courtyards and rich exhibits.",
        "city": "Istanbul",
        "longitude": 28.9842,
        "latitude": 41.0136,
        "cost": "$$"
    },


    {
        "name": "Grand Bazaar Shopping Experience",
        "category": "Leisure",
        "score": 3,
        "description": "Shop at Istanbul's Grand Bazaar, one of the largest and oldest covered markets in the world, offering a variety of traditional goods and souvenirs.",
        "city": "Istanbul",
        "longitude": 28.9674,
        "latitude": 41.0107,
        "cost": "$"
    },


    {
        "name": "Antalya Old Town and Beaches",
        "category": "Leisure",
        "score": 3,
        "description": "Enjoy the historic Old Town of Antalya, Kaleiçi, and relax on the beautiful beaches along the Turkish Riviera.",
        "city": "Antalya",
        "longitude": 30.7133,
        "latitude": 36.8969,
        "cost": "$$"
    },


    {
        "name": "Sumela Monastery Visit",
        "category": "Cultural",
        "score": 4,
        "description": "Discover the Sumela Monastery, a stunning Greek Orthodox monastery perched on a cliff in the Maçka district of Trabzon.",
        "city": "Trabzon",
        "longitude": 39.7108,
        "latitude": 40.9889,
        "cost": "$$"
    },


    {
        "name": "Göbekli Tepe Archaeological Site",
        "category": "History",
        "score": 5,
        "description": "Visit Göbekli Tepe, one of the world's oldest temple complexes, offering insights into early human settlements and civilizations.",
        "city": "Şanlıurfa",
        "longitude": 38.9225,
        "latitude": 37.2236,
        "cost": "$"
    },


    {
        "name": "Mount Nemrut Sunrise or Sunset Tour",
        "category": "Nature",
        "score": 4,
        "description": "Witness a breathtaking sunrise or sunset at Mount Nemrut, known for its giant head statues and a UNESCO World Heritage site.",
        "city": "Kahta",
        "longitude": 38.7406,
        "latitude": 37.9814,
        "cost": "$$"
    }
]
